$GPGSV,3,2,12,11,15,039,,16,15,293,25,18,37,174,23,20,22,056,16*71\r\n
$GPGSV,3,3,12,25,36,127,17,26,47,289,27,29,74,081,24,31,47,230,28*76\r\n
$GLGSV,3,1,10,65,06,316,12,66,17,010,,67,05,058,,73,58,164,17*66\r\n
$GLGSV,3,2,10,74,65,302,23,75,12,321,27,80,11,149,,82,21,042,24*6C\r\n
$GLGSV,3,3,10,83,68,053,,84,44,211,*69\r\n
$GNGLL,5610.36460,N,01011.47177,E,101541.00,A,A*71\r\n
$GNRMC,101542.00,A,5610.36453,N,01011.47188,E,0.066,,140522,,,A*6B\r\n
$GNVTG,,T,,M,0.066,N,0.122,K,A*3C\r\n
$GNGGA,101542.00,5610.36453,N,01011.47188,E,1,10,1.14,71.3,M,42.8,M,,*79\r\n
$GNGSA,A,3,26,16,25,18,04,29,31,,,,,,2.10,1.14,1.76*1B\r\n
$GNGSA,A,3,82,75,65,,,,,,,,,,2.10,1.14,1.76*10\r\n
$GPGSV,3,1,12,02,17,043,,04,14,319,20,05,19,088,20,09,08,350,*7B\r\n
$GPGSV,3,2,12,11,15,039,,16,15,293,24,18,37,174,23,20,22,056,18*7E\r\n
$GPGSV,3,3,12,25,36,127,16,26,47,289,27,29,74,081,25,31,47,230,28*76\r\n
$GLGSV,3,1,10,65,06,316,11,66,17,010,,67,05,058,,73,58,164,18*6A\r\n
$GLGSV,3,2,10,74,65,302,23,75,12,321,27,80,11,149,,82,21,042,25*6D\r\n
$GLGSV,3,3,10,83,68,053,,84,44,211,*69\r\n
$GNGLL,5610.36453,N,01011.47188,E,101542.00,A,A*72\r\n
$GNRMC,101543.00,A,5610.36444,N,01011.47187,E,0.099,,140522,,,A*63\r\n
$GNVTG,,T,,M,0.099,N,0.184,K,A*30\r\n
$GNGGA,101543.00,5610.36444,N,01011.47187,E,1,10,1.14,70.9,M,42.8,M,,*7A\r\n
$GNGSA,A,3,26,16,25,18,04,29,31,,,,,,2.10,1.14,1.76*1B\r\n
$GNGSA,A,3,82,75,65,,,,,,,,,,2.10,1.14,1.76*10\r\n
$GPGSV,3,1,12,02,17,043,,04,14,319,19,05,19,088,21,09,08,350,*70\r\n
$GPGSV,3,2,12,11,15,039,,16,15,293,24,18,37,174,23,20,22,056,17*71\r\n
$GPGSV,3,3,12,25,36,127,15,26,47,289,27,29,74,081,26,31,47,230,28*76\r\n
$GLGSV,3,1,10,65,06,316,08,66,17,010,,67,05,058,,73,58,164,18*62\r\n
$GLGSV,3,2,10,74,65,302,23,75,12,321,27,80,11,149,,82,21,042,25*6D\r\n
$GLGSV,3,3,10,83,68,053,,84,44,211,*69\r\n
$GNGLL,5610.36444,N,01011.47187,E,101543.00,A,A*7A\r\n
$GNRMC,101544.00,A,5610.36433,N,01011.47186,E,0.090,,140522,,,A*6C\r\n
$GNVTG,,T,,M,0.090,N,0.166,K,A*35\r\n
$GNGGA,101544.00,5610.36433,N,01011.47186,E,1,10,1.14,70.3,M,42.8,M,,*76\r\n
$GNGSA,A,3,26,16,25,18,04,29,31,,,,,,2.10,1.14,1.76*1B\r\n
$GNGSA,A,3,82,75,65,,,,,,,,,,2.10,1.14,1.76*10\r\n
$GPGSV,3,1,12,02,17,043,,04,14,319,19,05,19,088,22,09,08,350,19*7B\r\n
$GPGSV,3,2,12,11,15,039,,16,15,293,23,18,37,174,23,20,22,056,19*78\r\n
$GPGSV,3,3,12,25,36,127,15,26,47,289,27,29,74,081,26,31,47,230,28*76\r\n
$GLGSV,3,1,10,65,06,316,09,66,17,010,,67,05,058,,73,58,164,18*63\r\n
$GLGSV,3,2,10,74,65,302,23,75,12,321,28,80,11,149,,82,21,042,24*63\r\n
$GLGSV,3,3,10,83,68,053,,84,44,211,*69\r\n
$GNGLL,5610.36433,N,01011.47186,E,101544.00,A,A*7C\r\n
$GNRMC,101545.00,A,5610.36422,N,01011.47166,E,0.088,,140522,,,A*6A\r\n
$GNVTG,,T,,M,0.088,N,0.163,K,A*39\r\n
$GNGGA,101545.00,5610.36422,N,01011.47166,E,1,10,1.14,69.6,M,42.8,M,,*74\r\n
$GNGSA,A,3,26,16,25,18,04,29,31,,,,,,2.10,1.14,1.76*1B\r\n
$GNGSA,A,3,82,75,65,,,,,,,,,,2.10,1.14,1.76*10\r\n
$GPGSV,3,1,12,02,17,043,,04,14,319,19,05,19,088,22,09,08,350,20*71\r\n
$GPGSV,3,2,12,11,15,039,,16,15,293,23,18,37,174,23,20,22,056,18*79\r\n
$GPGSV,3,3,12,25,36,127,17,26,47,289,28,29,74,081,27,31,47,230,28*7A\r\n
$GLGSV,3,1,10,65,06,316,09,66,17,010,,67,05,058,,73,58,164,18*63\r\n
$GLGSV,3,2,10,74,65,302,22,75,12,321,28,80,11,149,,82,21,042,25*63\r\n
$GLGSV,3,3,10,83,68,053,,84,44,211,*69\r\n
$GNGLL,5610.36422,N,01011.47166,E,101545.00,A,A*73\r\n
$GNRMC,101546.00,A,5610.36412,N,01011.47148,E,0.062,,140522,,,A*62\r\n
$GNVTG,,T,,M,0.062,N,0.116,K,A*3F\r\n
$GNGGA,101546.00,5610.36412,N,01011.47148,E,1,10,1.14,69.0,M,42.8,M,,*7E\r\n
$GNGSA,A,3,26,16,25,18,04,29,31,,,,,,2.10,1.14,1.76*1B\r\n
$GNGSA,A,3,82,75,65,,,,,,,,,,2.10,1.14,1.76*10\r\n
$GPGSV,3,1,12,02,17,043,,04,14,319,20,05,19,088,22,09,08,350,20*7B\r\n
$GPGSV,3,2,12,11,15,039,,16,15,293,23,18,37,174,23,20,22,056,17*76\r\n
$GPGSV,3,3,12,25,36,127,18,26,47,289,28,29,74,081,27,31,47,230,27*7A\r\n
$GLGSV,3,1,10,65,06,316,09,66,17,010,,67,05,058,,73,58,164,18*63\r\n
$GLGSV,3,2,10,74,65,302,23,75,12,321,28,80,11,149,,82,21,042,25*62\r\n
$GLGSV,3,3,10,83,68,053,,84,44,211,*69\r\n
47148,E,101546.00,A,A*7F\r\n
GNRMC,101547.00,A,5610.36402,N,01011.47132,E,0.028,,140522,,,A*61\r\n
$GNVTG,,T,,M,0.028,N,0.052,K,A*30\r\n
$GNGGA,101547.00,5610.36402,N,01011.47132,E,1,10,1.14,68.5,M,42.8,M,,*77\r\n
$GNGSA,A,3,26,16,25,18,04,29,31,,,,,,2.10,1.14,1.76*1B\r\n
$GNGSA,A,3,82,75,65,,,,,,,,,,2.10,1.14,1.76*$GPGSV,3,1,12,02,17,043,,04,14,319,2\r\n
$GPGSV,3,3,12,25,36,127,16,26,47,289,28,29,74,081,27,31,47,230,27*74\r\n
$GLGSV,3,1,10,65,06,316,10,66,17,010,,67,05,058,,73,58,164,19*6A\r\n
$GLGSV,3,2,10,74,65,302,23,75,12,321,27,80,11,149,,82,21,042,23*6B\r\n
$GLGSV,3,3,10,83,68,053,,84,44,211,*69\r\n
$GNGLL,5610.36390,N,01011.47113,E,101548.00,A,A*72\r\n
$GNRMC,101549.00,A,5610.36382,N,01011.47090,E,0.258,,140522,,,A*6C\r\n
$GNVTG,,T,,M,0.258,N,0.478,K,A*39\r\n
$GNGGA,101549.00,5610.36382,N,01011.47090,E,1,10,1.14,67.3,M,42.8,M,,*76\r\n
$GNGSA,A,3,26,16,25,18,04,29,31,,,,,,2.10,1.14,1.76*1B\r\n
$GNGSA,A,3,82,75,65,,,,,,,,,,2.10,1.14,1.76*10\r\n
$GPGSV,3,1,12,02,17,043,,04,13,319,19,05,19,087,24,09,08,350,23*7C\r\n
$GPGSV,3,2,12,11,15,039,,16,15,293,22,18,37,174,23,20,22,056,17*77\r\n
$GPGSV,3,3,12,25,36,127,15,26,47,289,28,29,74,081,27,31,47,230,27*77\r\n
$GLGSV,3,1,10,65,06,316,11,66,17,010,,67,05,058,,73,58,164,19*6B\r\n
$GLGSV,3,2,10,74,65,302,23,75,12,321,27,80,11,149,,82,21,042,23*6B\r\n
$GLGSV,3,3,10,83,68,053,,84,44,211,*69\r\n
$GNGLL,5610.36382,N,01011.47090,E,101549.00,A,A*7A\r\n
$GNRMC,101550.00,A,5610.36366,N,01011.47077,E,0.077,,140522,,,A*68\r\n
$GNVTG,,T,,M,0.077,N,0.142,K,A*3A\r\n
$GNGGA,101550.00,5610.36366,N,01011.47077,E,1,10,1.14,66.5,M,42.8,M,,*7A\r\n
$GNGSA,A,3,26,16,25,18,04,29,31,,,,,,2.10,1.14,1.76*1B\r\n
$GNGSA,A,3,82,75,65,,,,,,,,,,2.10,1.14,1.76*10\r\n
$GPGSV,3,1,12,02,17,043,,04,13,319,20,05,19,087,25,09,08,350,23*77\r\n
$GPGSV,3,2,12,11,15,039,,16,15,293,22,18,37,174,24,20,22,056,17*70\r\n
$GPGSV,3,3,12,25,36,127,16,26,47,289,28,29,74,081,28,31,47,230,27*7B\r\n
$GLGSV,3,1,10,65,06,316,10,66,17,010,,67,05,058,,73,58,164,19*6A\r\n
$GLGSV,3,2,10,74,65,302,22,75,12,321,27,80,11,149,,82,21,042,24*6D\r\n
$GLGSV,3,3,10,83,68,053,,84,44,211,*69\r\n