09:47:32  $GNGLL,5610.38551,N,01011.51073,E,094732.10,A,A*74/r
09:47:32  $GNGLL,5610.38742,N,01011.51293,E,094732.20,A,A*7B/r
09:47:32  $GNGLL,5610.38871,N,01011.51445,E,094732.30,A,A*78/r
09:47:32  $GNGLL,5610.39016,N,01011.51565,E,094732.40,A,A*74/r
09:47:33  $GNGLL,5610.39158,N,01011.51599,E,094732.50,A,A*7D/r
09:47:33  $GNGLL,5610.39210,N,01011.51571,E,094732.60,A,A*77/r
09:47:33  $GNGLL,5610.39239,N,01011.51600,E,094732.70,A,A*78/r
09:47:33  $GNGLL,5610.39273,N,01011.51617,E,094732.80,A,A*7F/r
09:47:33  $GNGLL,5610.39244,N,01011.51627,E,094732.90,A,A*79/r
09:47:33  $GNGLL,5610.39228,N,01011.51615,E,094733.00,A,A*7A/r
09:47:33  $GNGLL,5610.39269,N,01011.51610,E,094733.10,A,A*7B/r
09:47:33  $GNGLL,5610.39243,N,01011.51607,E,094733.20,A,A*76/r
09:47:33  $GNGLL,5610.39114,N,01011.51582,E,094733.30,A,A*78/r
09:47:33  $GNGLL,5610.39049,N,01011.51587,E,094733.40,A,A*73/r
09:47:34  $GNGLL,5610.39081,N,01011.51611,E,094733.50,A,A*7A/r
09:47:34  $GNGLL,5610.39008,N,01011.51635,E,094733.60,A,A*7E/r
09:47:34  $GNGLL,5610.38928,N,01011.51642,E,094733.70,A,A*75/r
09:47:34  $GNGLL,5610.38885,N,01011.51641,E,094733.80,A,A*7F/r
09:47:34  $GNGLL,5610.38835,N,01011.51638,E,094733.90,A,A*7B/r
09:47:34  $GNGLL,5610.38792,N,01011.51637,E,094734.00,A,A*78/r
09:47:34  $GNGLL,5610.38750,N,01011.51635,E,094734.10,A,A*75/r
09:47:34  $GNGLL,5610.38708,N,01011.51633,E,094734.20,A,A*7D/r
09:47:34  $GNGLL,5610.38660,N,01011.51631,E,094734.30,A,A*71/r
09:47:34  $GNGLL,5610.38618,N,01011.51633,E,094734.40,A,A*7B/r
09:47:35  $GNGLL,5610.38568,N,01011.51637,E,094734.50,A,A*7A/r
09:47:35  $GNGLL,5610.38522,N,01011.51641,E,094734.60,A,A*76/r
09:47:35  $GNGLL,5610.38472,N,01011.51645,E,094734.70,A,A*77/r
09:47:35  $GNGLL,5610.38425,N,01011.51650,E,094734.80,A,A*7E/r
09:47:35  $GNGLL,5610.38379,N,01011.51653,E,094734.90,A,A*72/r
09:47:35  $GNGLL,5610.38334,N,01011.51654,E,094735.00,A,A*74/r
09:47:35  $GNGLL,5610.38284,N,01011.51655,E,094735.10,A,A*7E/r
09:47:35  $GNGLL,5610.38243,N,01011.51653,E,094735.20,A,A*70/r
09:47:35  $GNGLL,5610.38211,N,01011.51655,E,094735.30,A,A*70/r
09:47:35  $GNGLL,5610.38180,N,01011.51655,E,094735.40,A,A*7C/r
09:47:36  $GNGLL,5610.38151,N,01011.51656,E,094735.50,A,A*72/r
09:47:36  $GNGLL,5610.38126,N,01011.51659,E,094735.60,A,A*7E/r
09:47:36  $GNGLL,5610.38099,N,01011.51662,E,094735.70,A,A*72/r
09:47:36  $GNGLL,5610.38080,N,01011.51661,E,094735.80,A,A*76/r
09:47:36  $GNGLL,5610.38069,N,01011.51659,E,094735.90,A,A*7B/r
09:47:36  $GNGLL,5610.38059,N,01011.51658,E,094736.00,A,A*73/r
09:47:36  $GNGLL,5610.38047,N,01011.51655,E,094736.10,A,A*70/r
09:47:36  $GNGLL,5610.38033,N,01011.51655,E,094736.20,A,A*70/r
09:47:36  $GNGLL,5610.38020,N,01011.51653,E,094736.30,A,A*75/r
09:47:36  $GNGLL,5610.38010,N,01011.51653,E,094736.40,A,A*71/r
09:47:37  $GNGLL,5610.37994,N,01011.51654,E,094736.50,A,A*7D/r
09:47:37  $GNGLL,5610.37980,N,01011.51654,E,094736.60,A,A*7B/r
09:47:37  $GNGLL,5610.37966,N,01011.51652,E,094736.70,A,A*74/r
09:47:37  $GNGLL,5610.37949,N,01011.51651,E,094736.80,A,A*75/r
09:47:37  $GNGLL,5610.37933,N,01011.51650,E,094736.90,A,A*78/r
09:47:37  $GNGLL,5610.37919,N,01011.51649,E,094737.00,A,A*70/r
09:47:37  $GNGLL,5610.37906,N,01011.51648,E,094737.10,A,A*7E/r
09:47:37  $GNGLL,5610.37893,N,01011.51647,E,094737.20,A,A*7F/r
09:47:37  $GNGLL,5610.37877,N,01011.51648,E,094737.30,A,A*7B/r
09:47:37  $GNGLL,5610.37862,N,01011.51646,E,094737.40,A,A*76/r
09:47:38  $GNGLL,5610.37846,N,01011.51647,E,094737.50,A,A*70/r
09:47:38  $GNGLL,5610.37830,N,01011.51648,E,094737.60,A,A*7D/r
09:47:38  $GNGLL,5610.37816,N,01011.51648,E,094737.70,A,A*78/r
09:47:38  $GNGLL,5610.37805,N,01011.51649,E,094737.80,A,A*74/r
09:47:38  $GNGLL,5610.37795,N,01011.51650,E,094737.90,A,A*7B/r
09:47:38  $GNGLL,5610.37785,N,01011.51650,E,094738.00,A,A*7C/r
09:47:38  $GNGLL,5610.37772,N,01011.51652,E,094738.10,A,A*77/r
09:47:38  $GNGLL,5610.37757,N,01011.51653,E,094738.20,A,A*72/r
09:47:38  $GNGLL,5610.37746,N,01011.51655,E,094738.30,A,A*75/r
09:47:38  $GNGLL,5610.37736,N,01011.51657,E,094738.40,A,A*77/r
09:47:39  $GNGLL,5610.37725,N,01011.51659,E,094738.50,A,A*7A/r
09:47:39  $GNGLL,5610.37715,N,01011.51661,E,094738.60,A,A*71/r
09:47:39  $GNGLL,5610.37705,N,01011.51664,E,094738.70,A,A*74/r
09:47:39  $GNGLL,5610.37702,N,01011.51666,E,094738.80,A,A*7E/r
09:47:39  $GNGLL,5610.37702,N,01011.51668,E,094738.90,A,A*71/r
09:47:39  $GNGLL,5610.37704,N,01011.51672,E,094739.00,A,A*74/r
09:47:39  $GNGLL,5610.37705,N,01011.51676,E,094739.10,A,A*70/r
09:47:39  $GNGLL,5610.37705,N,01011.51679,E,094739.20,A,A*7C/r
09:47:39  $GNGLL,5610.37705,N,01011.51683,E,094739.30,A,A*78/r
09:47:39  $GNGLL,5610.37704,N,01011.51686,E,094739.40,A,A*7B/r
09:47:40  $GNGLL,5610.37704,N,01011.51690,E,094739.50,A,A*7D/r
09:47:40  $GNGLL,5610.37704,N,01011.51693,E,094739.60,A,A*7D/r
09:47:40  $GNGLL,5610.37704,N,01011.51697,E,094739.70,A,A*78/r
09:47:40  $GNGLL,5610.37704,N,01011.51701,E,094739.80,A,A*79/r
09:47:40  $GNGLL,5610.37704,N,01011.51704,E,094739.90,A,A*7D/r
09:47:40  $GNGLL,5610.37703,N,01011.51708,E,094740.00,A,A*71/r
09:47:40  $GNGLL,5610.37703,N,01011.51711,E,094740.10,A,A*78/r
09:47:40  $GNGLL,5610.37702,N,01011.51715,E,094740.20,A,A*7E/r
09:47:40  $GNGLL,5610.37702,N,01011.51716,E,094740.30,A,A*7C/r
09:47:40  $GNGLL,5610.37704,N,01011.51718,E,094740.40,A,A*73/r
09:47:41  $GNGLL,5610.37705,N,01011.51718,E,094740.50,A,A*73/r
09:47:41  $GNGLL,5610.37706,N,01011.51720,E,094740.60,A,A*78/r
09:47:41  $GNGLL,5610.37707,N,01011.51721,E,094740.70,A,A*79/r
09:47:41  $GNGLL,5610.37708,N,01011.51722,E,094740.80,A,A*7A/r
09:47:41  $GNGLL,5610.37708,N,01011.51723,E,094740.90,A,A*7A/r
09:47:41  $GNGLL,5610.37709,N,01011.51724,E,094741.00,A,A*74/r
09:47:41  $GNGLL,5610.37710,N,01011.51726,E,094741.10,A,A*7F/r
09:47:41  $GNGLL,5610.37707,N,01011.51729,E,094741.20,A,A*75/r
